{
"type": "FeatureCollection",
"crs": { "type": "name", "properties": { "name": "urn:ogc:def:crs:OGC:1.3:CRS84" } },
                                                                                
"features": [
{ "type": "Feature", "properties": { "id": 1, "time": "2013-04-05 22:00:00+01", "place": "Badalona" }, "geometry": { "type": "Point", "coordinates": [ 2.302935178646962, 41.454465319940262 ] } },
{ "type": "Feature", "properties": { "id": 2, "time": "2013-04-07 21:00:00+01", "place": "Mallorca" }, "geometry": { "type": "Point", "coordinates": [ 2.710347345224549, 39.527000568484908 ] } },
{ "type": "Feature", "properties": { "id": 3, "time": "2013-04-11 21:00:00+01", "place": "Cagliari" }, "geometry": { "type": "Point", "coordinates": [ 9.218331379893911, 39.147934809091609 ] } },
{ "type": "Feature", "properties": { "id": 4, "time": "2013-04-14 21:00:00+01", "place": "Palermo" }, "geometry": { "type": "Point", "coordinates": [ 13.509279653073172, 38.101836037385262 ] } },
{ "type": "Feature", "properties": { "id": 5, "time": "2013-04-16 21:00:00+01", "place": "Catania" }, "geometry": { "type": "Point", "coordinates": [ 15.139976713091997, 37.580063519879786 ] } },
{ "type": "Feature", "properties": { "id": 6, "time": "2013-04-22 21:00:00+01", "place": "Athens" }, "geometry": { "type": "Point", "coordinates": [ 23.560558945430593, 37.968968561316203 ] } },
{ "type": "Feature", "properties": { "id": 7, "time": "2013-04-07 20:00:00+01", "place": "Istanbul" }, "geometry": { "type": "Point", "coordinates": [ 28.790035724111664, 41.005920375631952 ] } }
]
}
